[
  {
    "locatie": "Ameland",
    "naam": "Ameland Airport Ballum",
    "Latitude": 53.45277777777778,
    "Longitude": 5.683888888888889
  },
  {
    "locatie": "Haarlemmermeer",
    "naam": "Luchthaven Schiphol",
    "Latitude": 52.30833333333333,
    "Longitude": 4.760833333333333
  },
  {
    "locatie": "Apeldoorn",
    "naam": "Teuge International Airport",
    "Latitude": 52.24138888888889,
    "Longitude": 6.046666666666667
  },
  {
    "locatie": "Beek",
    "naam": "Maastricht Aachen Airport",
    "Latitude": 50.9125,
    "Longitude": 5.769444444444445
  },
  {
    "locatie": "Hoeven",
    "naam": "Breda International Airport",
    "Latitude": 51.55472222222222,
    "Longitude": 4.5525
  },
  {
    "locatie": "Budel",
    "naam": "Kempen Airport",
    "Latitude": 51.256388888888885,
    "Longitude": 5.601944444444444
  },
  {
    "locatie": "Den Helder",
    "naam": "Vliegveld de Kooy",
    "Latitude": 52.9225,
    "Longitude": 4.782777777777778
  },
  {
    "locatie": "Drachten",
    "naam": "Vliegveld Drachten",
    "Latitude": 53.11805555555556,
    "Longitude": 6.128333333333333
  },
  {
    "locatie": "Eindhoven",
    "naam": "Eindhoven Airport",
    "Latitude": 51.45055555555556,
    "Longitude": 5.3741666666666665
  },
  {
    "locatie": "Enschede",
    "naam": "Twente Airport",
    "Latitude": 52.274166666666666,
    "Longitude": 6.886666666666666
  },
  {
    "locatie": "Groningen",
    "naam": "Groningen Airport Eelde",
    "Latitude": 53.120555555555555,
    "Longitude": 6.578055555555555
  },
  {
    "locatie": "Hilversum",
    "naam": "Vliegveld Hilversum",
    "Latitude": 52.192499999999995,
    "Longitude": 5.147222222222223
  },
  {
    "locatie": "Hoogeveen",
    "naam": "Vliegveld Hoogeveen",
    "Latitude": 52.73083333333334,
    "Longitude": 6.515833333333333
  },
  {
    "locatie": "Lelystad",
    "naam": "Lelystad Airport",
    "Latitude": 52.45527777777778,
    "Longitude": 5.523055555555556
  },
  {
    "locatie": "Middelburg",
    "naam": "Vliegveld Midden-Zeeland",
    "Latitude": 51.51222222222222,
    "Longitude": 3.729166666666667
  },
  {
    "locatie": "Middenmeer",
    "naam": "Vliegveld Middenmeer",
    "Latitude": 52.81666666666667,
    "Longitude": 5.027777777777778
  },
  {
    "locatie": "Numansdorp",
    "naam": "Vliegveld Numansdorp",
    "Latitude": 51.753055555555555,
    "Longitude": 4.455277777777778
  },
  {
    "locatie": "Rotterdam",
    "naam": "Rotterdam The Hague Airport",
    "Latitude": 51.9525,
    "Longitude": 4.434444444444445
  },
  {
    "locatie": "Stadskanaal",
    "naam": "Vliegveld Stadskanaal",
    "Latitude": 52.99583333333334,
    "Longitude": 7.020833333333333
  },
  {
    "locatie": "Texel",
    "naam": "Texel International Airport",
    "Latitude": 53.11527777777778,
    "Longitude": 4.833611111111111
  },
  {
    "locatie": "Venlo",
    "naam": "TrafficPort Venlo",
    "Latitude": 51.006388888888885,
    "Longitude": 6.0008333333333335
  },
  {
    "locatie": "Winschoten",
    "naam": "Vliegveld Oostwold",
    "Latitude": 53.20805555555556,
    "Longitude": 7.041111111111111
  },
  {
    "locatie": "Concordia",
    "naam": "F.D. Roosevelt Airport",
    "Latitude": 17.49638888888889,
    "Longitude": 62.97916666666667
  },
  {
    "locatie": "Kralendijk",
    "naam": "Bonaire International Airport",
    "Latitude": 12.130833333333333,
    "Longitude": 68.26833333333333
  },
  {
    "locatie": "The Bottom",
    "naam": "Juancho E. Yrausquin Airport",
    "Latitude": 17.64527777777778,
    "Longitude": 63.220555555555556
  },
  {
    "locatie": "Ede",
    "naam": "Vliegbasis Deelen",
    "Latitude": 52.00083333333333,
    "Longitude": 5.014444444444444
  },
  {
    "locatie": "Gilze-Rijen",
    "naam": "Vliegbasis Gilze-Rijen",
    "Latitude": 51.00944444444445,
    "Longitude": 4.0152777777777775
  },
  {
    "locatie": "Leeuwarden",
    "naam": "Vliegbasis Leeuwarden",
    "Latitude": 53.00361111111111,
    "Longitude": 5.0125
  },
  {
    "locatie": "Uden",
    "naam": "Vliegbasis Volkel",
    "Latitude": 51.01083333333333,
    "Longitude": 5.011388888888889
  },
  {
    "locatie": "Venray",
    "naam": "Vliegbasis De Peel",
    "Latitude": 51.00861111111111,
    "Longitude": 5.014166666666667
  },
  {
    "locatie": "Woensdrecht",
    "naam": "Vliegbasis Woensdrecht",
    "Latitude": 51.0075,
    "Longitude": 4.005833333333333
  },
  {
    "locatie": "Arnhem",
    "naam": "Vliegveld Terlet",
    "Latitude": 52.05722222222222,
    "Longitude": 5.924444444444445
  },
  {
    "locatie": "Axel",
    "naam": "Zweefvliegveld Axel\n",
    "Latitude": 51.25555555555555,
    "Longitude": 3.891388888888889
  },
  {
    "locatie": "Biddinghuizen",
    "naam": "Zweefvliegveld Biddinghuizen\n",
    "Latitude": 52.42916666666667,
    "Longitude": 5.674166666666667
  },
  {
    "locatie": "Castricum",
    "naam": "Zweefvliegveld Castricum\n",
    "Latitude": 52.53666666666666,
    "Longitude": 4.626666666666667
  },
  {
    "locatie": "Haamstede",
    "naam": "vliegveld Haamstede",
    "Latitude": 51.70888888888889,
    "Longitude": 3.7122222222222225
  },
  {
    "locatie": "Lemelerveld",
    "naam": "Vliegveld Salland",
    "Latitude": 52.467777777777776,
    "Longitude": 6.332777777777777
  },
  {
    "locatie": "Malden",
    "naam": "Zweefvliegveld Malden",
    "Latitude": 51.78583333333333,
    "Longitude": 5.880000000000001
  },
  {
    "locatie": "Marknesse",
    "naam": "Zweefvliegveld De Voorst\n",
    "Latitude": 52.68472222222222,
    "Longitude": 5.910555555555556
  },
  {
    "locatie": "Nistelrode",
    "naam": "Zweefvliegveld Nistelrode",
    "Latitude": 51.68333333333333,
    "Longitude": 5.549444444444444
  },
  {
    "locatie": "Noordwijk",
    "naam": "Zweefvliegveld Langeveld\n",
    "Latitude": 52.297777777777775,
    "Longitude": 4.5136111111111115
  },
  {
    "locatie": "Schinveld",
    "naam": "Zweefvliegveld Schinveld\n",
    "Latitude": 50.981944444444444,
    "Longitude": 6.0025
  },
  {
    "locatie": "Slootdorp",
    "naam": "Zweefvliegveld Wieringermeer\n",
    "Latitude": 52.81861111111112,
    "Longitude": 4.9286111111111115
  },
  {
    "locatie": "Soesterberg",
    "naam": "Zweefvliegveld Soesterberg",
    "Latitude": 52.12722222222222,
    "Longitude": 5.276111111111111
  },
  {
    "locatie": "Valkenburg",
    "naam": "Zweefvliegveld Valkenburg",
    "Latitude": 52.16611111111111,
    "Longitude": 4.418055555555556
  },
  {
    "locatie": "Veendam",
    "naam": "Zweefvliegveld Veendam\n",
    "Latitude": 53.08444444444444,
    "Longitude": 6.823611111111111
  },
  {
    "locatie": "Venlo",
    "naam": "Zweefvliegveld Venlo",
    "Latitude": 51.363055555555555,
    "Longitude": 6.216111111111111
  },
  {
    "locatie": "Amsterdam",
    "naam": "Amsterdam Heliport",
    "Latitude": 52.00666666666667,
    "Longitude": 4.013333333333334
  },
  {
    "locatie": "Rotterdam",
    "naam": "Heliport Maasvlakte",
    "Latitude": 51.01611111111111,
    "Longitude": 4.000277777777778
  },
  {
    "locatie": "Vlieland",
    "naam": "Vlieland Heliport",
    "Latitude": 53.29694444444444,
    "Longitude": 5.085555555555556
  }
]
